{
    "data": {
      "sections": [
        {
            "offices": [
                {
                  "id": "36a7f349-476b-43b4-b5ea-e8a697e9c927",
                  "name": "м.Київ юридичний офіс компанії “Патріот”",
                  "address": "вул. Лесі Українки 24А",
                  "phone": "+38 (093) 123-45-67",
                  "email": "email@gmail.com",
                  "hours": "Пн - Сб 09:00 - 20:00 Нд 10:00 - 16:00"
                },
                {
                  "id": "45f6f2f9-d0d2-4b33-b9fa-70c8e6a45b33",
                  "name": "м.Київ юридичний офіс компанії “Патріот”",
                  "address": "вул. Лесі Українки 24А",
                  "phone": "+38 (093) 123-45-67",
                  "email": "email@gmail.com",
                  "hours": "Пн - Сб 09:00 - 20:00 Нд 10:00 - 16:00"
                },
                {
                  "id": "6f8d4205-97c0-4f72-8324-7bbbc7f1ae84",
                  "name": "м.Київ юридичний офіс компанії “Патріот”",
                  "address": "вул. Лесі Українки 24А",
                  "phone": "+38 (093) 123-45-67",
                  "email": "email@gmail.com",
                  "hours": "Пн - Сб 09:00 - 20:00 Нд 10:00 - 16:00"
                },
                {
                  "id": "2333bc6b-115f-4f6f-b4d6-61ca1de2d0b0",
                  "name": "м.Київ юридичний офіс компанії “Патріот”",
                  "address": "вул. Лесі Українки 24А",
                  "phone": "+38 (093) 123-45-67",
                  "email": "email@gmail.com",
                  "hours": "Пн - Сб 09:00 - 20:00 Нд 10:00 - 16:00"
                },
                {
                  "id": "89e9fa77-f92e-4de2-9ec4-7863196e40bc",
                  "name": "м.Київ юридичний офіс компанії “Патріот”",
                  "address": "вул. Лесі Українки 24А",
                  "phone": "+38 (093) 123-45-67",
                  "email": "email@gmail.com",
                  "hours": "Пн - Сб 09:00 - 20:00 Нд 10:00 - 16:00"
                }
            ],
            "distributors": [
              {
                "id": "99b0ff88-e507-47f3-9fc6-d1a577e75f43",
                "name": "АЗС WOG",
                "address": "м. Київ, бульвар Лесі Українки, 26a"
              },
              {
                "id": "34fdd2f0-7247-4d8c-b06b-b0e3d968ec67",
                "name": "АЗС WOG",
                "address": "м. Київ, бульвар Лесі Українки, 26a"
              },
              {
                "id": "518a6199-4b87-4f0e-92a4-72f8a8233f34",
                "name": "АЗС WOG",
                "address": "м. Київ, бульвар Лесі Українки, 26a"
              },
              {
                "id": "e5c1fe45-9e55-484f-b7cc-4f244b93c5db",
                "name": "АЗС WOG",
                "address": "м. Київ, бульвар Лесі Українки, 26a"
              },
              {
                "id": "7e3d4b43-1b22-463b-9d3f-7e1a84c9a1fc",
                "name": "АЗС WOG",
                "address": "м. Київ, бульвар Лесі Українки, 26a"
              }
            ],
            "contacts": {
              "title": "Гаряча лінія",
              "phone": "+38 (093) 123-45-67",
              "hours": "Пн - Сб 09:00 - 21:00"
            },
            "switch": {
              "officesTitle": "Головні офіси компанії",
              "distributorsTitle": "Точки продажу лотерей"
            },
            "hoursTitle": "Графік роботи",
            "__component": "sections.locations"
        }
      ],
      "meta": {
        "title": "Контакти"
      }
    }
  }
  